<?xml version='1.0' encoding='UTF-8'?>
<kml xmlns='http://www.opengis.net/kml/2.2'>
<Document>
<Placemark>
<name>Tokyo City Hall</name>
<Point>
<coordinates>139.692,35.6895,0.0</coordinates>
</Point>
</Placemark>

<Placemark>
<name>Tokyo Station</name>
<Point>
<coordinates>139.767,35.681,0.0</coordinates>
</Point>
</Placemark>

<Placemark>
<name>University of Tokyo</name>
<Point>
<coordinates>139.763,35.7125,0.0</coordinates>
</Point>
</Placemark>

<Placemark>
<name>Tokyo Tower</name>
<Point>
<coordinates>139.745,35.6586,0.0</coordinates>
</Point>
</Placemark>

<Placemark>
<name>Roppongi Hills</name>
<Point>
<coordinates>139.73,35.6597,0.0</coordinates>
</Point>
</Placemark>

<Placemark>
<name>Tokyo International Forum</name>
<Point>
<coordinates>139.764,35.6767,0.0</coordinates>
</Point>
</Placemark>

<Placemark>
<name>Imperial Palace</name>
<Point>
<coordinates>139.751,35.6836,0.0</coordinates>
</Point>
</Placemark>

<Placemark>
<name>Narita International Airport</name>
<Point>
<coordinates>140.383,35.7633,0.0</coordinates>
</Point>
</Placemark>

<Placemark>
<name>Tokyo Skytree Station</name>
<Point>
<coordinates>139.809,35.7105,0.0</coordinates>
</Point>
</Placemark>

<Placemark>
<name>Haneda Airport</name>
<Point>
<coordinates>139.787,35.55,0.0</coordinates>
</Point>
</Placemark>

<Placemark>
<name>Tama Art University Museum</name>
<Point>
<coordinates>139.428,35.6235,0.0</coordinates>
</Point>
</Placemark>

<Placemark>
<name>Yokohama, Kanagawa</name>
<Point>
<coordinates>139.638,35.4441,0.0</coordinates>
</Point>
</Placemark>

<Placemark>
<name>University of Tsukuba</name>
<Point>
<coordinates>140.102,36.1092,0.0</coordinates>
</Point>
</Placemark>

</Document>
</kml>
